@CanonGPS/ver1.0/wgs-84/Canon PowerShot S100/a5657edab461400e85db3a4567d46971/fe98
$GPGGA,160322.758,3935.8708,N,10630.6625,W,6,03,2.6,2047.15,M,-18.84,M,,0000*55
$GPRMC,160322.758,A,3935.8708,N,10630.6625,W,0.07,234.67,040417,,,A*7F
$GPGGA,160507.000,3936.0185,N,10630.6808,W,1,07,1.0,2579.45,M,-18.84,M,,0000*5C
$GPRMC,160507.000,A,3936.0185,N,10630.6808,W,0.69,193.49,040417,,,A*77
$GPGGA,160607.000,3936.0072,N,10630.6695,W,1,07,1.0,2557.57,M,-18.84,M,,0000*53
$GPRMC,160607.000,A,3936.0072,N,10630.6695,W,9.85,132.13,040417,,,A*78
$GPGGA,160713.000,3936.0081,N,10630.6713,W,1,07,1.0,2549.65,M,-18.84,M,,0000*5A
$GPRMC,160713.000,A,3936.0081,N,10630.6713,W,9.91,131.85,040417,,,A*76
$GPGGA,160954.000,3936.0072,N,10630.6794,W,1,07,1.2,2565.60,M,-18.84,M,,0000*5D
$GPRMC,160954.000,A,3936.0072,N,10630.6794,W,1.73,125.81,040417,,,A*7D
$GPGGA,161056.000,3936.0119,N,10630.6787,W,1,08,1.0,2568.11,M,-18.84,M,,0000*5F
$GPRMC,161056.000,A,3936.0119,N,10630.6787,W,2.89,163.43,040417,,,A*73
$GPGGA,161201.000,3936.0052,N,10630.6721,W,1,07,1.2,2562.71,M,-18.84,M,,0000*5C
$GPRMC,161201.000,A,3936.0052,N,10630.6721,W,8.98,145.94,040417,,,A*75
$GPGGA,161410.000,3936.0043,N,10630.6795,W,1,08,1.0,2551.69,M,-18.84,M,,0000*51
$GPRMC,161410.000,A,3936.0043,N,10630.6795,W,9.07,124.98,040417,,,A*70
$GPGGA,161511.000,3936.0150,N,10630.6832,W,1,07,1.2,2571.45,M,-18.84,M,,0000*51
$GPRMC,161511.000,A,3936.0150,N,10630.6832,W,2.60,166.16,040417,,,A*7B
$GPGGA,161612.000,3936.0127,N,10630.6663,W,1,07,1.2,2582.13,M,-18.84,M,,0000*54
$GPRMC,161612.000,A,3936.0127,N,10630.6663,W,11.44,130.82,040417,,,A*4B
$GPGGA,161714.000,3936.0274,N,10630.7139,W,1,08,1.0,2553.74,M,-18.84,M,,0000*5F
$GPRMC,161714.000,A,3936.0274,N,10630.7139,W,10.49,22.03,040417,,,A*77
$GPGGA,161815.653,3936.0245,N,10630.7194,W,1,08,1.0,2478.39,M,-18.84,M,,0000*55
$GPRMC,161815.653,A,3936.0245,N,10630.7194,W,5.88,168.18,040417,,,A*70
$GPGGA,161916.862,3936.0327,N,10630.7141,W,1,08,1.0,2533.72,M,-18.84,M,,0000*57
$GPRMC,161916.862,A,3936.0327,N,10630.7141,W,6.82,155.99,040417,,,A*7D
$GPGGA,162018.171,3936.0216,N,10630.7127,W,1,07,1.2,2551.62,M,-18.84,M,,0000*53
$GPRMC,162018.171,A,3936.0216,N,10630.7127,W,8.57,153.17,040417,,,A*77
$GPGGA,162121.000,3936.0196,N,10630.7038,W,1,07,1.4,2565.69,M,-18.84,M,,0000*51
$GPRMC,162121.000,A,3936.0196,N,10630.7038,W,12.90,134.23,040417,,,A*49
$GPGGA,162224.000,3936.0878,N,10630.7941,W,1,08,1.0,2518.04,M,-18.83,M,,0000*54
$GPRMC,162224.000,A,3936.0878,N,10630.7941,W,6.18,310.62,040417,,,A*75
$GPGGA,162326.000,3936.0850,N,10630.7939,W,1,07,1.4,2521.83,M,-18.84,M,,0000*5B
$GPRMC,162326.000,A,3936.0850,N,10630.7939,W,7.15,172.28,040417,,,A*77
$GPGGA,162427.000,3936.0870,N,10630.7862,W,1,07,1.4,2539.86,M,-18.84,M,,0000*5C
$GPRMC,162427.000,A,3936.0870,N,10630.7862,W,9.95,151.73,040417,,,A*75
$GPGGA,162530.000,3936.1322,N,10630.9050,W,1,08,1.0,2481.83,M,-18.83,M,,0000*5A
$GPRMC,162530.000,A,3936.1322,N,10630.9050,W,9.69,89.45,040417,,,A*4A
$GPGGA,162633.000,3936.1404,N,10630.9072,W,1,07,1.0,2495.61,M,-18.83,M,,0000*5F
$GPRMC,162633.000,A,3936.1404,N,10630.9072,W,3.55,70.66,040417,,,A*4B
$GPGGA,162736.000,3936.1258,N,10630.9191,W,1,06,1.4,2494.86,M,-18.84,M,,0000*52
$GPRMC,162736.000,A,3936.1258,N,10630.9191,W,13.02,153.57,040417,,,A*4D
$GPGGA,162838.345,3936.1709,N,10631.0111,W,1,07,1.4,2439.59,M,-18.83,M,,0000*53
$GPRMC,162838.345,A,3936.1709,N,10631.0111,W,7.81,231.27,040417,,,A*71
$GPGGA,162943.000,3936.1542,N,10631.0352,W,1,07,1.4,2471.35,M,-18.83,M,,0000*52
$GPRMC,162943.000,A,3936.1542,N,10631.0352,W,13.04,157.81,040417,,,A*41
$GPGGA,163044.000,3936.1750,N,10631.1028,W,1,07,1.4,2466.80,M,-18.83,M,,0000*5B
$GPRMC,163044.000,A,3936.1750,N,10631.1028,W,6.88,141.64,040417,,,A*7C
$GPGGA,163148.000,3936.1751,N,10631.1296,W,1,07,1.4,2433.51,M,-18.83,M,,0000*5C
$GPRMC,163148.000,A,3936.1751,N,10631.1296,W,9.81,172.34,040417,,,A*74
$GPGGA,163249.162,3936.1615,N,10631.1664,W,1,07,1.4,2510.78,M,-18.83,M,,0000*58
$GPRMC,163249.162,A,3936.1615,N,10631.1664,W,3.07,228.66,040417,,,A*74
$GPGGA,163351.290,3936.0863,N,10631.3523,W,1,07,1.4,2578.28,M,-18.82,M,,0000*58
$GPRMC,163351.290,A,3936.0863,N,10631.3523,W,3.40,234.84,040417,,,A*7C
$GPGGA,163454.417,3936.0113,N,10631.5473,W,1,07,1.4,2635.10,M,-18.82,M,,0000*5E
$GPRMC,163454.417,A,3936.0113,N,10631.5473,W,1.55,229.25,040417,,,A*7A
$GPGGA,163559.000,3935.9305,N,10631.7320,W,1,07,1.4,2733.03,M,-18.82,M,,0000*59
$GPRMC,163559.000,A,3935.9305,N,10631.7320,W,3.16,204.39,040417,,,A*7F
$GPGGA,163701.163,3935.8615,N,10631.9185,W,1,07,1.4,2867.64,M,-18.82,M,,0000*5B
$GPRMC,163701.163,A,3935.8615,N,10631.9185,W,2.91,230.86,040417,,,A*7F
$GPGGA,163806.000,3935.7846,N,10632.1133,W,1,08,1.0,2933.33,M,-18.81,M,,0000*5C
$GPRMC,163806.000,A,3935.7846,N,10632.1133,W,2.54,219.57,040417,,,A*7C
$GPGGA,163911.000,3935.7021,N,10632.3201,W,1,08,1.0,2953.72,M,-18.81,M,,0000*51
$GPRMC,163911.000,A,3935.7021,N,10632.3201,W,8.53,200.63,040417,,,A*70
$GPGGA,164012.000,3935.6842,N,10632.3797,W,1,08,1.0,3011.66,M,-18.80,M,,0000*50
$GPRMC,164012.000,A,3935.6842,N,10632.3797,W,10.26,115.48,040417,,,A*4E
$GPGGA,164112.915,3935.6984,N,10632.3799,W,1,08,1.0,2998.52,M,-18.81,M,,0000*56
$GPRMC,164112.915,A,3935.6984,N,10632.3799,W,13.78,51.01,040417,,,A*73
$GPGGA,164214.000,3935.8211,N,10632.3356,W,1,08,1.0,2979.80,M,-18.81,M,,0000*50
$GPRMC,164214.000,A,3935.8211,N,10632.3356,W,2.74,291.97,040417,,,A*78
$GPGGA,164315.000,3935.9406,N,10632.2851,W,1,07,1.4,3006.39,M,-18.81,M,,0000*55
$GPRMC,164315.000,A,3935.9406,N,10632.2851,W,3.30,1.13,040417,,,A*72
$GPGGA,164416.000,3936.0739,N,10632.4415,W,1,08,1.0,2956.13,M,-18.80,M,,0000*51
$GPRMC,164416.000,A,3936.0739,N,10632.4415,W,7.38,2.20,040417,,,A*76
$GPGGA,164519.000,3936.1719,N,10632.4328,W,1,07,1.4,2952.35,M,-18.80,M,,0000*5E
$GPRMC,164519.000,A,3936.1719,N,10632.4328,W,13.68,30.24,040417,,,A*77
$GPGGA,164620.000,3936.2748,N,10632.4894,W,1,07,1.4,2926.08,M,-18.80,M,,0000*51
$GPRMC,164620.000,A,3936.2748,N,10632.4894,W,1.45,338.64,040417,,,A*76
$GPGGA,164720.000,3936.3272,N,10632.5642,W,1,07,1.4,2899.76,M,-18.79,M,,0000*53
$GPRMC,164720.000,A,3936.3272,N,10632.5642,W,3.88,59.33,040417,,,A*4B
$GPGGA,164821.994,3936.3913,N,10632.5081,W,1,07,1.4,2879.12,M,-18.80,M,,0000*56
$GPRMC,164821.994,A,3936.3913,N,10632.5081,W,13.21,36.36,040417,,,A*7A
$GPGGA,164926.000,3936.4690,N,10632.4233,W,1,07,1.4,2849.74,M,-18.80,M,,0000*5E
$GPRMC,164926.000,A,3936.4690,N,10632.4233,W,13.66,47.03,040417,,,A*72
$GPGGA,165028.000,3936.5394,N,10632.3644,W,1,07,1.4,2810.65,M,-18.80,M,,0000*57
$GPRMC,165028.000,A,3936.5394,N,10632.3644,W,13.10,60.22,040417,,,A*70
$GPGGA,165130.013,3936.6605,N,10632.3260,W,1,07,1.4,2772.91,M,-18.80,M,,0000*51
$GPRMC,165130.013,A,3936.6605,N,10632.3260,W,9.05,17.37,040417,,,A*4D
$GPGGA,165234.000,3936.7113,N,10632.3448,W,1,07,1.4,2750.24,M,-18.80,M,,0000*57
$GPRMC,165234.000,A,3936.7113,N,10632.3448,W,11.56,53.63,040417,,,A*7B
$GPGGA,165338.000,3936.8259,N,10632.3428,W,1,07,1.4,2713.43,M,-18.80,M,,0000*58
$GPRMC,165338.000,A,3936.8259,N,10632.3428,W,8.41,43.78,040417,,,A*47
$GPGGA,165439.000,3936.8803,N,10632.4198,W,1,07,1.4,2681.01,M,-18.80,M,,0000*5E
$GPRMC,165439.000,A,3936.8803,N,10632.4198,W,5.55,348.17,040417,,,A*74
$GPGGA,165540.000,3936.8718,N,10632.4253,W,1,07,1.4,2640.57,M,-18.80,M,,0000*5E
$GPRMC,165540.000,A,3936.8718,N,10632.4253,W,9.50,128.38,040417,,,A*7A
$GPGGA,165641.000,3936.8764,N,10632.4127,W,1,07,1.4,2687.52,M,-18.80,M,,0000*59
$GPRMC,165641.000,A,3936.8764,N,10632.4127,W,14.11,122.98,040417,,,A*4A
$GPGGA,165741.000,3936.9231,N,10632.4910,W,1,07,1.4,2654.02,M,-18.80,M,,0000*5B
$GPRMC,165741.000,A,3936.9231,N,10632.4910,W,2.23,290.46,040417,,,A*7C
$GPGGA,165845.000,3937.0513,N,10632.5834,W,1,07,1.4,2610.31,M,-18.79,M,,0000*5F
$GPRMC,165845.000,A,3937.0513,N,10632.5834,W,7.23,78.82,040417,,,A*47
$GPGGA,165946.000,3937.1448,N,10632.6002,W,1,07,1.4,2580.84,M,-18.79,M,,0000*59
$GPRMC,165946.000,A,3937.1448,N,10632.6002,W,19.76,21.09,040417,,,A*75
$GPGGA,170047.796,3937.2454,N,10632.5662,W,1,07,1.4,2521.40,M,-18.79,M,,0000*53
$GPRMC,170047.796,A,3937.2454,N,10632.5662,W,15.04,41.43,040417,,,A*7D
$GPGGA,170149.000,3937.3674,N,10632.5083,W,1,07,1.4,2519.81,M,-18.79,M,,0000*5A
$GPRMC,170149.000,A,3937.3674,N,10632.5083,W,8.80,48.13,040417,,,A*4E
$GPGGA,170251.000,3937.3277,N,10632.4924,W,1,06,1.4,2532.97,M,-18.79,M,,0000*5D
$GPRMC,170251.000,A,3937.3277,N,10632.4924,W,15.31,161.87,040417,,,A*47
$GPGGA,170352.045,3937.1638,N,10632.5356,W,1,07,1.4,2539.75,M,-18.79,M,,0000*5B
$GPRMC,170352.045,A,3937.1638,N,10632.5356,W,8.68,168.70,040417,,,A*76
$GPGGA,170456.000,3937.0020,N,10632.5742,W,1,07,1.4,2649.64,M,-18.80,M,,0000*54
$GPRMC,170456.000,A,3937.0020,N,10632.5742,W,9.71,187.38,040417,,,A*7F
$GPGGA,170601.000,3936.8368,N,10632.6029,W,1,07,1.4,2762.43,M,-18.80,M,,0000*56
$GPRMC,170601.000,A,3936.8368,N,10632.6029,W,9.95,151.45,040417,,,A*7B
$GPGGA,170705.000,3936.6695,N,10632.6418,W,1,07,1.4,2827.31,M,-18.80,M,,0000*57
$GPRMC,170705.000,A,3936.6695,N,10632.6418,W,9.46,148.84,040417,,,A*7A
$GPGGA,170808.000,3936.5076,N,10632.6908,W,1,07,1.4,2908.14,M,-18.79,M,,0000*5C
$GPRMC,170808.000,A,3936.5076,N,10632.6908,W,6.95,187.52,040417,,,A*75
$GPGGA,170911.000,3936.3700,N,10632.7145,W,1,07,1.4,2987.71,M,-18.80,M,,0000*57
$GPRMC,170911.000,A,3936.3700,N,10632.7145,W,12.20,134.53,040417,,,A*4E
$GPGGA,171013.000,3936.3929,N,10632.8757,W,1,07,1.4,2945.76,M,-18.79,M,,0000*5D
$GPRMC,171013.000,A,3936.3929,N,10632.8757,W,6.45,299.40,040417,,,A*7B
$GPGGA,171113.732,3936.4930,N,10633.0360,W,1,07,1.4,2894.90,M,-18.79,M,,0000*59
$GPRMC,171113.732,A,3936.4930,N,10633.0360,W,7.93,40.71,040417,,,A*44
$GPGGA,171217.000,3936.6027,N,10633.1868,W,1,06,1.4,2861.30,M,-18.78,M,,0000*57
$GPRMC,171217.000,A,3936.6027,N,10633.1868,W,15.76,16.12,040417,,,A*74
$GPGGA,171321.000,3936.7446,N,10633.1743,W,1,07,1.4,2822.39,M,-18.78,M,,0000*58
$GPRMC,171321.000,A,3936.7446,N,10633.1743,W,11.06,83.41,040417,,,A*7D
$GPGGA,171424.000,3936.7764,N,10633.2343,W,1,07,1.4,2825.36,M,-18.78,M,,0000*56
$GPRMC,171424.000,A,3936.7764,N,10633.2343,W,11.25,128.48,040417,,,A*43
$GPGGA,171526.000,3936.7841,N,10633.3071,W,1,06,1.6,2790.98,M,-18.78,M,,0000*58
$GPRMC,171526.000,A,3936.7841,N,10633.3071,W,7.07,199.80,040417,,,A*72
$GPGGA,171629.000,3936.8455,N,10633.4158,W,1,06,1.6,2751.08,M,-18.78,M,,0000*5B
$GPRMC,171629.000,A,3936.8455,N,10633.4158,W,8.10,2.45,040417,,,A*76
$GPGGA,171732.000,3936.8940,N,10633.5009,W,1,06,1.6,2719.69,M,-18.78,M,,0000*56
$GPRMC,171732.000,A,3936.8940,N,10633.5009,W,11.46,4.14,040417,,,A*49
$GPGGA,171835.000,3937.0234,N,10633.5210,W,1,06,1.6,2686.17,M,-18.77,M,,0000*54
$GPRMC,171835.000,A,3937.0234,N,10633.5210,W,14.87,50.02,040417,,,A*74
$GPGGA,171937.000,3937.1264,N,10633.5364,W,1,06,1.6,2653.74,M,-18.77,M,,0000*5C
$GPRMC,171937.000,A,3937.1264,N,10633.5364,W,1.01,33.71,040417,,,A*4A
$GPGGA,172039.000,3937.1681,N,10633.5651,W,1,06,1.6,2630.32,M,-18.77,M,,0000*53
$GPRMC,172039.000,A,3937.1681,N,10633.5651,W,7.75,303.11,040417,,,A*71
$GPGGA,172142.000,3937.2155,N,10633.6016,W,1,06,1.6,2605.98,M,-18.77,M,,0000*53
$GPRMC,172142.000,A,3937.2155,N,10633.6016,W,4.50,65.89,040417,,,A*41
$GPGGA,172245.000,3937.2920,N,10633.6214,W,1,06,1.6,2568.05,M,-18.77,M,,0000*51
$GPRMC,172245.000,A,3937.2920,N,10633.6214,W,3.47,62.11,040417,,,A*48
$GPGGA,172348.000,3937.3216,N,10633.6225,W,1,06,1.6,2556.86,M,-18.77,M,,0000*56
$GPRMC,172348.000,A,3937.3216,N,10633.6225,W,6.35,85.09,040417,,,A*49
$GPGGA,172449.000,3937.3618,N,10633.6635,W,1,06,1.6,2518.10,M,-18.77,M,,0000*5A
$GPRMC,172449.000,A,3937.3618,N,10633.6635,W,1.82,25.07,040417,,,A*4F
$GPGGA,172554.000,3937.4217,N,10633.7037,W,1,06,1.6,2480.17,M,-18.77,M,,0000*59
$GPRMC,172554.000,A,3937.4217,N,10633.7037,W,12.92,67.56,040417,,,A*7A
$GPGGA,172655.000,3937.4755,N,10633.7278,W,1,06,1.8,2447.20,M,-18.77,M,,0000*50
$GPRMC,172655.000,A,3937.4755,N,10633.7278,W,6.62,350.08,040417,,,A*74
$GPGGA,172758.000,3937.5162,N,10633.7075,W,1,06,1.8,2426.25,M,-18.77,M,,0000*52
$GPRMC,172758.000,A,3937.5162,N,10633.7075,W,9.07,133.25,040417,,,A*70
$GPGGA,172859.000,3937.5194,N,10633.7173,W,1,06,1.8,2410.16,M,-18.77,M,,0000*57
$GPRMC,172859.000,A,3937.5194,N,10633.7173,W,7.21,130.98,040417,,,A*7F
$GPGGA,173003.000,3937.5527,N,10633.7597,W,1,05,1.8,2382.42,M,-18.77,M,,0000*5D
$GPRMC,173003.000,A,3937.5527,N,10633.7597,W,1.86,275.09,040417,,,A*7A
$GPGGA,173114.000,3937.6602,N,10633.7588,W,1,04,3.2,2357.55,M,-18.77,M,,0000*54
$GPRMC,173114.000,A,3937.6602,N,10633.7588,W,16.38,26.85,040417,,,A*77
$GPGGA,173222.233,3937.9020,N,10633.7042,W,1,04,3.2,2307.42,M,-18.76,M,,0000*58
$GPRMC,173222.233,A,3937.9020,N,10633.7042,W,15.49,49.92,040417,,,A*73
$GPGGA,173333.296,3937.9450,N,10633.7139,W,1,05,2.0,2320.70,M,-18.80,M,,0000*57
$GPRMC,173333.296,A,3937.9450,N,10633.7139,W,14.88,32.38,040417,,,A*73
$GPGGA,173443.794,3937.7711,N,10633.6034,W,1,04,3.4,2321.86,M,-18.76,M,,0000*50
$GPRMC,173443.794,A,3937.7711,N,10633.6034,W,23.77,107.23,040417,,,A*48
$GPGGA,173554.857,3937.6095,N,10633.5318,W,1,04,3.4,2386.19,M,-18.77,M,,0000*59
$GPRMC,173554.857,A,3937.6095,N,10633.5318,W,19.88,100.89,040417,,,A*45
$GPGGA,173705.922,3937.4348,N,10633.4589,W,1,05,2.0,2496.27,M,-18.77,M,,0000*5D
$GPRMC,173705.922,A,3937.4348,N,10633.4589,W,22.21,105.54,040417,,,A*40
$GPGGA,173810.000,3937.2883,N,10633.4227,W,1,05,2.2,2543.99,M,-18.77,M,,0000*58
$GPRMC,173810.000,A,3937.2883,N,10633.4227,W,17.28,131.17,040417,,,A*44
$GPGGA,173915.000,3937.1329,N,10633.3437,W,1,05,2.2,2629.61,M,-18.78,M,,0000*53
$GPRMC,173915.000,A,3937.1329,N,10633.3437,W,17.78,125.58,040417,,,A*43
$GPGGA,174018.000,3936.9928,N,10633.2858,W,1,06,1.8,2728.18,M,-18.75,M,,0000*5F
$GPRMC,174018.000,A,3936.9928,N,10633.2858,W,11.54,138.76,040417,,,A*4E
$GPGGA,174122.000,3936.8439,N,10633.2105,W,1,06,1.8,2793.81,M,-18.74,M,,0000*5B
$GPRMC,174122.000,A,3936.8439,N,10633.2105,W,17.59,130.26,040417,,,A*4D
$GPGGA,174225.483,3936.7424,N,10633.1578,W,1,06,1.8,2830.57,M,-18.77,M,,0000*50
$GPRMC,174225.483,A,3936.7424,N,10633.1578,W,1.20,80.90,040417,,,A*46
$GPGGA,174330.000,3936.8080,N,10633.1224,W,1,06,1.8,2782.72,M,-18.78,M,,0000*5F
$GPRMC,174330.000,A,3936.8080,N,10633.1224,W,11.95,73.87,040417,,,A*72
$GPGGA,174434.000,3936.7860,N,10632.8738,W,1,06,1.8,2755.82,M,-18.79,M,,0000*51
$GPRMC,174434.000,A,3936.7860,N,10632.8738,W,9.00,90.26,040417,,,A*4B
$GPGGA,174539.000,3936.7836,N,10632.6974,W,1,06,1.8,2740.44,M,-18.79,M,,0000*58
$GPRMC,174539.000,A,3936.7836,N,10632.6974,W,9.01,91.57,040417,,,A*4A
$GPGGA,174642.000,3936.8414,N,10632.6750,W,1,06,1.8,2696.88,M,-18.80,M,,0000*50
$GPRMC,174642.000,A,3936.8414,N,10632.6750,W,9.64,0.12,040417,,,A*74
$GPGGA,174744.000,3936.9372,N,10632.6504,W,1,06,1.8,2650.55,M,-18.80,M,,0000*58
$GPRMC,174744.000,A,3936.9372,N,10632.6504,W,7.46,23.43,040417,,,A*4D
$GPGGA,174848.000,3937.0243,N,10632.5866,W,1,06,1.8,2604.97,M,-18.79,M,,0000*53
$GPRMC,174848.000,A,3937.0243,N,10632.5866,W,16.54,80.32,040417,,,A*73
$GPGGA,174950.000,3937.0504,N,10632.5801,W,1,06,2.0,2582.75,M,-18.79,M,,0000*54
$GPRMC,174950.000,A,3937.0504,N,10632.5801,W,0.27,0.00,040417,,,A*74
$GPGGA,175053.000,3937.0462,N,10632.5366,W,1,06,2.0,2590.64,M,-18.80,M,,0000*51
$GPRMC,175053.000,A,3937.0462,N,10632.5366,W,11.46,101.77,040417,,,A*43
$GPGGA,175157.000,3936.9098,N,10632.5270,W,1,06,2.0,2650.53,M,-18.79,M,,0000*56
$GPRMC,175157.000,A,3936.9098,N,10632.5270,W,1.84,176.75,040417,,,A*74
$GPGGA,175302.000,3936.7358,N,10632.5018,W,1,06,2.0,2734.38,M,-18.79,M,,0000*57
$GPRMC,175302.000,A,3936.7358,N,10632.5018,W,5.44,163.84,040417,,,A*79
$GPGGA,175413.355,3936.5771,N,10632.4802,W,1,05,5.0,2832.15,M,-18.79,M,,0000*5E
$GPRMC,175413.355,A,3936.5771,N,10632.4802,W,8.08,305.99,040417,,,A*79
$GPGGA,175524.417,3936.3447,N,10632.4244,W,1,05,5.6,3040.22,M,-18.80,M,,0000*5A
$GPRMC,175524.417,A,3936.3447,N,10632.4244,W,7.81,299.93,040417,,,A*75
$GPGGA,175635.480,3935.9778,N,10632.2628,W,1,05,2.4,3552.46,M,-18.80,M,,0000*58
$GPRMC,175635.480,A,3935.9778,N,10632.2628,W,7.26,274.16,040417,,,A*75
$GPGGA,175740.000,3936.0564,N,10632.4578,W,1,05,2.4,2880.28,M,-18.81,M,,0000*58
$GPRMC,175740.000,A,3936.0564,N,10632.4578,W,7.48,179.77,040417,,,A*7E
$GPGGA,175845.292,3935.8156,N,10632.3709,W,1,05,2.4,3154.27,M,-18.81,M,,0000*58
$GPRMC,175845.292,A,3935.8156,N,10632.3709,W,8.61,170.71,040417,,,A*7B
$GPGGA,175949.102,3935.4183,N,10632.1531,W,1,05,2.6,4029.05,M,-18.81,M,,0000*5E
$GPRMC,175949.102,A,3935.4183,N,10632.1531,W,2.42,205.36,040417,,,A*7A
$GPGGA,180053.000,3935.6374,N,10632.3868,W,1,06,2.4,2989.72,M,-18.80,M,,0000*5B
$GPRMC,180053.000,A,3935.6374,N,10632.3868,W,16.36,140.10,040417,,,A*4A
$GPGGA,180158.000,3935.6473,N,10632.2887,W,1,06,2.4,2982.15,M,-18.80,M,,0000*5B
$GPRMC,180158.000,A,3935.6473,N,10632.2887,W,27.29,111.53,040417,,,A*4F
$GPGGA,180304.000,3935.5820,N,10632.1562,W,1,06,2.2,2964.42,M,-18.81,M,,0000*51
$GPRMC,180304.000,A,3935.5820,N,10632.1562,W,18.34,155.12,040417,,,A*4D
$GPGGA,180408.000,3935.3681,N,10632.0820,W,1,06,2.2,2904.99,M,-18.81,M,,0000*53
$GPRMC,180408.000,A,3935.3681,N,10632.0820,W,30.32,153.27,040417,,,A*43
$GPGGA,180518.000,3935.2132,N,10632.0867,W,1,06,2.2,2900.39,M,-18.81,M,,0000*50
$GPRMC,180518.000,A,3935.2132,N,10632.0867,W,3.07,166.71,040417,,,A*7D
$GPGGA,180623.000,3935.2033,N,10632.0632,W,1,06,2.2,2876.88,M,-18.81,M,,0000*5F
$GPRMC,180623.000,A,3935.2033,N,10632.0632,W,15.10,91.58,040417,,,A*7B
$GPGGA,180727.000,3935.1539,N,10632.0492,W,1,06,2.2,2864.96,M,-18.81,M,,0000*52
$GPRMC,180727.000,A,3935.1539,N,10632.0492,W,14.87,143.07,040417,,,A*41
$GPGGA,180832.122,3935.0908,N,10631.9968,W,1,06,2.2,2866.71,M,-18.81,M,,0000*5E
$GPRMC,180832.122,A,3935.0908,N,10631.9968,W,14.69,140.26,040417,,,A*46
$GPGGA,180936.000,3935.0810,N,10631.9412,W,1,06,2.2,2855.61,M,-18.81,M,,0000*53
$GPRMC,180936.000,A,3935.0810,N,10631.9412,W,19.06,113.62,040417,,,A*48
$GPGGA,181039.810,3935.0781,N,10631.8864,W,1,06,2.0,2806.63,M,-18.81,M,,0000*50
$GPRMC,181039.810,A,3935.0781,N,10631.8864,W,19.86,111.74,040417,,,A*40
$GPGGA,181143.684,3935.0540,N,10631.8199,W,1,06,2.0,2789.65,M,-18.81,M,,0000*55
$GPRMC,181143.684,A,3935.0540,N,10631.8199,W,18.05,133.10,040417,,,A*43
$GPGGA,181247.557,3935.0387,N,10631.7638,W,1,06,2.0,2802.00,M,-18.82,M,,0000*5D
$GPRMC,181247.557,A,3935.0387,N,10631.7638,W,14.13,128.36,040417,,,A*42
$GPGGA,181351.000,3935.0487,N,10631.7087,W,1,06,2.0,2742.93,M,-18.83,M,,0000*59
$GPRMC,181351.000,A,3935.0487,N,10631.7087,W,19.24,70.99,040417,,,A*76
$GPGGA,181454.560,3935.0589,N,10631.6810,W,1,06,2.0,2732.35,M,-18.83,M,,0000*5B
$GPRMC,181454.560,A,3935.0589,N,10631.6810,W,17.12,45.51,040417,,,A*76
$GPGGA,181558.432,3935.0566,N,10631.6809,W,1,05,1.8,2740.58,M,-18.83,M,,0000*5F
$GPRMC,181558.432,A,3935.0566,N,10631.6809,W,15.76,34.04,040417,,,A*72
$GPGGA,181702.316,3935.0085,N,10631.5570,W,1,05,1.8,2769.23,M,-18.83,M,,0000*5C
$GPRMC,181702.316,A,3935.0085,N,10631.5570,W,19.04,85.68,040417,,,A*7F
$GPGGA,181806.192,3935.1014,N,10631.5011,W,1,05,1.8,2696.10,M,-18.82,M,,0000*52
$GPRMC,181806.192,A,3935.1014,N,10631.5011,W,5.85,15.23,040417,,,A*43
$GPGGA,181910.068,3935.3111,N,10631.5603,W,1,05,1.8,2656.50,M,-18.83,M,,0000*5A
$GPRMC,181910.068,A,3935.3111,N,10631.5603,W,12.98,8.29,040417,,,A*4E
$GPGGA,182020.943,3935.5507,N,10631.4158,W,1,04,8.2,2577.20,M,-18.82,M,,0000*5A
$GPRMC,182020.943,A,3935.5507,N,10631.4158,W,11.70,48.50,040417,,,A*75
$GPGGA,182131.067,3935.7667,N,10631.2514,W,1,04,8.6,2520.16,M,-18.83,M,,0000*5B
$GPRMC,182131.067,A,3935.7667,N,10631.2514,W,31.74,89.07,040417,,,A*7F
$GPGGA,182243.128,3935.9985,N,10631.1637,W,1,04,9.2,2478.26,M,-18.84,M,,0000*56
$GPRMC,182243.128,A,3935.9985,N,10631.1637,W,14.92,65.92,040417,,,A*7E
$GPGGA,182347.190,3936.1488,N,10631.0374,W,1,05,1.8,2461.12,M,-18.83,M,,0000*53
$GPRMC,182347.190,A,3936.1488,N,10631.0374,W,7.71,5.20,040417,,,A*70
$GPGGA,182451.067,3936.1693,N,10630.9950,W,1,05,1.8,2458.42,M,-18.84,M,,0000*5E
$GPRMC,182451.067,A,3936.1693,N,10630.9950,W,23.30,108.71,040417,,,A*4E
$GPGGA,182556.941,3936.0859,N,10630.9719,W,1,05,1.8,2498.53,M,-18.83,M,,0000*54
$GPRMC,182556.941,A,3936.0859,N,10630.9719,W,1.84,178.09,040417,,,A*78
$GPGGA,182701.628,3935.9240,N,10630.9121,W,1,05,1.8,2629.08,M,-18.83,M,,0000*57
$GPRMC,182701.628,A,3935.9240,N,10630.9121,W,2.83,188.57,040417,,,A*7D
$GPGGA,182807.441,3935.7532,N,10630.8410,W,1,05,1.8,2693.58,M,-18.83,M,,0000*5D
$GPRMC,182807.441,A,3935.7532,N,10630.8410,W,32.01,127.26,040417,,,A*49
$GPGGA,182913.128,3935.5867,N,10630.7785,W,1,05,1.8,2773.24,M,-18.83,M,,0000*58
$GPRMC,182913.128,A,3935.5867,N,10630.7785,W,28.26,135.64,040417,,,A*43
$GPGGA,183016.816,3935.4327,N,10630.7486,W,1,05,1.8,2833.28,M,-18.84,M,,0000*5F
$GPRMC,183016.816,A,3935.4327,N,10630.7486,W,1.55,185.12,040417,,,A*71
$GPGGA,183124.619,3935.2685,N,10630.6756,W,1,05,1.8,2934.34,M,-18.84,M,,0000*51
$GPRMC,183124.619,A,3935.2685,N,10630.6756,W,4.72,165.36,040417,,,A*7C
$GPGGA,183228.212,3935.0981,N,10630.5999,W,1,05,1.8,3059.19,M,-18.84,M,,0000*5A
$GPRMC,183228.212,A,3935.0981,N,10630.5999,W,2.17,151.30,040417,,,A*7F
$GPGGA,183333.000,3934.9594,N,10630.5349,W,1,05,1.8,3114.95,M,-18.84,M,,0000*5B
$GPRMC,183333.000,A,3934.9594,N,10630.5349,W,3.90,108.40,040417,,,A*77
$GPGGA,183437.000,3934.9730,N,10630.5010,W,1,05,1.8,3106.58,M,-18.85,M,,0000*58
$GPRMC,183437.000,A,3934.9730,N,10630.5010,W,14.65,69.13,040417,,,A*7B
$GPGGA,183541.818,3934.9437,N,10630.4676,W,1,05,1.8,3089.68,M,-18.85,M,,0000*5F
$GPRMC,183541.818,A,3934.9437,N,10630.4676,W,2.64,81.61,040417,,,A*4C
$GPGGA,183646.000,3934.7885,N,10630.4991,W,1,06,1.0,3162.40,M,-18.84,M,,0000*53
$GPRMC,183646.000,A,3934.7885,N,10630.4991,W,2.95,214.60,040417,,,A*75
$GPGGA,183750.524,3934.6261,N,10630.5021,W,1,06,1.0,3258.69,M,-18.85,M,,0000*54
$GPRMC,183750.524,A,3934.6261,N,10630.5021,W,8.20,201.02,040417,,,A*76
$GPGGA,183855.000,3934.4555,N,10630.4933,W,1,06,1.0,3311.31,M,-18.85,M,,0000*55
$GPRMC,183855.000,A,3934.4555,N,10630.4933,W,9.87,190.55,040417,,,A*73
$GPGGA,184000.127,3934.2924,N,10630.5001,W,1,06,1.0,3365.39,M,-18.85,M,,0000*50
$GPRMC,184000.127,A,3934.2924,N,10630.5001,W,9.62,183.69,040417,,,A*7B
$GPGGA,184103.871,3934.1278,N,10630.5037,W,1,06,1.0,3420.30,M,-18.85,M,,0000*53
$GPRMC,184103.871,A,3934.1278,N,10630.5037,W,10.39,184.26,040417,,,A*4D
$GPGGA,184209.805,3933.9775,N,10630.5132,W,1,06,1.0,3455.82,M,-18.85,M,,0000*51
$GPRMC,184209.805,A,3933.9775,N,10630.5132,W,6.93,216.40,040417,,,A*7B
$GPGGA,184313.537,3933.9888,N,10630.4680,W,1,06,1.0,3462.12,M,-18.86,M,,0000*5B
$GPRMC,184313.537,A,3933.9888,N,10630.4680,W,2.07,47.99,040417,,,A*44
$GPGGA,184417.523,3934.0584,N,10630.4511,W,1,06,1.0,3449.78,M,-18.85,M,,0000*5F
$GPRMC,184417.523,A,3934.0584,N,10630.4511,W,9.19,358.89,040417,,,A*7E
$GPGGA,184521.371,3934.2014,N,10630.4431,W,1,06,1.0,3417.95,M,-18.86,M,,0000*5C
$GPRMC,184521.371,A,3934.2014,N,10630.4431,W,6.95,14.53,040417,,,A*41
$GPGGA,184625.309,3934.3037,N,10630.3941,W,1,05,2.0,3379.92,M,-18.85,M,,0000*52
$GPRMC,184625.309,A,3934.3037,N,10630.3941,W,8.61,346.71,040417,,,A*75
$GPGGA,184729.245,3934.3890,N,10630.3164,W,1,06,1.0,3339.36,M,-18.85,M,,0000*56
$GPRMC,184729.245,A,3934.3890,N,10630.3164,W,2.72,70.45,040417,,,A*42
$GPGGA,184833.179,3934.4491,N,10630.2791,W,1,05,2.0,3317.31,M,-18.85,M,,0000*52
$GPRMC,184833.179,A,3934.4491,N,10630.2791,W,8.49,329.90,040417,,,A*78
$GPGGA,184937.121,3934.5863,N,10630.4073,W,1,06,1.0,3285.29,M,-18.83,M,,0000*52
$GPRMC,184937.121,A,3934.5863,N,10630.4073,W,8.16,21.79,040417,,,A*4B
$GPGGA,185041.000,3934.6684,N,10630.4335,W,1,06,1.0,3255.98,M,-18.85,M,,0000*5D
$GPRMC,185041.000,A,3934.6684,N,10630.4335,W,8.24,5.08,040417,,,A*74
$GPGGA,185144.972,3934.6978,N,10630.2149,W,1,06,1.0,3224.37,M,-18.85,M,,0000*55
$GPRMC,185144.972,A,3934.6978,N,10630.2149,W,5.61,81.98,040417,,,A*46
$GPGGA,185248.852,3934.7897,N,10630.1396,W,1,06,1.0,3182.47,M,-18.85,M,,0000*53
$GPRMC,185248.852,A,3934.7897,N,10630.1396,W,6.41,34.08,040417,,,A*4E
$GPGGA,185352.000,3934.8441,N,10630.2850,W,1,05,1.6,3095.09,M,-18.86,M,,0000*57
$GPRMC,185352.000,A,3934.8441,N,10630.2850,W,10.90,291.71,040417,,,A*49
$GPGGA,185455.602,3934.8859,N,10630.5110,W,1,05,1.6,3085.06,M,-18.83,M,,0000*57
$GPRMC,185455.602,A,3934.8859,N,10630.5110,W,11.21,304.13,040417,,,A*40
$GPGGA,185559.415,3935.0149,N,10630.5347,W,1,06,1.0,3107.73,M,-18.85,M,,0000*55
$GPRMC,185559.415,A,3935.0149,N,10630.5347,W,9.00,338.51,040417,,,A*7B
$GPGGA,185703.000,3935.0120,N,10630.5466,W,1,05,1.2,3105.65,M,-18.82,M,,0000*50
$GPRMC,185703.000,A,3935.0120,N,10630.5466,W,6.82,306.37,040417,,,A*75
$GPGGA,190333.318,3934.7757,N,10630.3141,W,1,04,3.0,2156.26,M,-18.85,M,,0000*59
$GPRMC,190333.318,A,3934.7757,N,10630.3141,W,0.00,0.00,040417,,,A*77
$GPGGA,190926.815,3934.9110,N,10630.7250,W,6,03,3.4,2185.10,M,-18.85,M,,0000*52
$GPRMC,190926.815,A,3934.9110,N,10630.7250,W,12.26,341.88,040417,,,A*42
$GPGGA,191038.915,3934.9247,N,10630.7565,W,6,03,3.4,2185.10,M,-18.85,M,,0000*54
$GPRMC,191038.915,A,3934.9247,N,10630.7565,W,16.77,339.69,040417,,,A*44
$GPGGA,191619.257,3931.1452,N,10634.9933,W,1,04,21.6,4310.93,M,-18.85,M,,0000*67
$GPRMC,191619.257,A,3931.1452,N,10634.9933,W,0.00,0.00,040417,,,A*77
$GPGGA,193547.031,3934.7813,N,10631.0635,W,1,05,2.6,2777.63,M,-18.86,M,,0000*5F
$GPRMC,193547.031,A,3934.7813,N,10631.0635,W,0.00,0.00,040417,,,A*70
$GPGGA,193704.521,3934.4955,N,10631.3751,W,1,04,3.0,532.05,M,-18.83,M,,0000*6C
$GPRMC,193704.521,A,3934.4955,N,10631.3751,W,0.00,0.00,040417,,,A*71
$GPGGA,193823.647,3935.5194,N,10632.6262,W,1,04,4.6,3973.52,M,-18.83,M,,0000*5A
$GPRMC,193823.647,A,3935.5194,N,10632.6262,W,0.00,0.00,040417,,,A*7E
$GPGGA,194016.751,3934.7553,N,10631.2857,W,1,05,2.8,1581.46,M,-18.80,M,,0000*5E
$GPRMC,194016.751,A,3934.7553,N,10631.2857,W,0.00,0.00,040417,,,A*76
$GPGGA,194651.031,3934.6924,N,10631.4989,W,1,04,3.0,-61.81,M,-18.83,M,,0000*74
$GPRMC,194651.031,A,3934.6924,N,10631.4989,W,0.00,0.00,040417,,,A*7B
$GPGGA,194837.213,3934.8070,N,10630.6291,W,1,05,1.4,3828.69,M,-18.82,M,,0000*54
$GPRMC,194837.213,A,3934.8070,N,10630.6291,W,0.00,0.00,040417,,,A*70
$GPGGA,195009.899,3934.7576,N,10631.5919,W,1,04,3.2,-381.17,M,-18.83,M,,0000*46
$GPRMC,195009.899,A,3934.7576,N,10631.5919,W,0.00,0.00,040417,,,A*79
$GPGGA,195155.025,3934.6858,N,10630.8865,W,1,05,1.6,2305.34,M,-18.82,M,,0000*53
$GPRMC,195155.025,A,3934.6858,N,10630.8865,W,0.00,0.00,040417,,,A*78
$GPGGA,195730.346,3935.1529,N,10630.7965,W,1,04,3.0,3288.29,M,-18.84,M,,0000*59
$GPRMC,195730.346,A,3935.1529,N,10630.7965,W,0.00,0.00,040417,,,A*78
$GPGGA,195849.464,3935.4441,N,10630.8406,W,1,04,2.6,3992.89,M,-18.84,M,,0000*5F
$GPRMC,195849.464,A,3935.4441,N,10630.8406,W,0.00,0.00,040417,,,A*73
$GPGGA,195957.590,3935.2656,N,10630.8811,W,1,04,2.4,3879.58,M,-18.84,M,,0000*59
$GPRMC,195957.590,A,3935.2656,N,10630.8811,W,0.00,0.00,040417,,,A*7F
$GPGGA,200109.728,3935.0167,N,10630.5630,W,1,05,1.2,3072.74,M,-18.84,M,,0000*5A
$GPRMC,200109.728,A,3935.0167,N,10630.5630,W,1.59,203.59,040417,,,A*75
$GPGGA,200218.000,3935.0256,N,10630.5590,W,6,03,6.2,3050.26,M,-18.85,M,,0000*5C
$GPRMC,200218.000,A,3935.0256,N,10630.5590,W,2.72,293.65,040417,,,A*7F
$GPGGA,200329.176,3935.0251,N,10630.5877,W,1,05,1.2,3076.17,M,-18.85,M,,0000*5C
$GPRMC,200329.176,A,3935.0251,N,10630.5877,W,15.20,290.98,040417,,,A*4F
$GPGGA,200432.546,3935.0225,N,10630.5642,W,1,04,1.4,3027.76,M,-18.85,M,,0000*59
$GPRMC,200432.546,A,3935.0225,N,10630.5642,W,9.58,282.90,040417,,,A*77
$GPGGA,200538.424,3935.0138,N,10630.5621,W,1,05,1.2,3067.24,M,-18.85,M,,0000*59
$GPRMC,200538.424,A,3935.0138,N,10630.5621,W,0.93,309.98,040417,,,A*77
$GPGGA,200649.112,3935.0305,N,10630.5880,W,1,04,1.2,3081.67,M,-18.85,M,,0000*5B
$GPRMC,200649.112,A,3935.0305,N,10630.5880,W,13.43,289.20,040417,,,A*4E
$GPGGA,200800.173,3935.0268,N,10630.5848,W,6,03,2.2,2998.00,M,-18.85,M,,0000*53
$GPRMC,200800.173,A,3935.0268,N,10630.5848,W,8.43,293.35,040417,,,A*71
$GPGGA,200913.238,3934.8453,N,10630.6084,W,1,04,9.2,2889.21,M,-18.84,M,,0000*58
$GPRMC,200913.238,A,3934.8453,N,10630.6084,W,0.00,0.00,040417,,,A*73
$GPGGA,201051.111,3934.4471,N,10630.7133,W,1,05,1.2,2393.02,M,-18.85,M,,0000*57
$GPRMC,201051.111,A,3934.4471,N,10630.7133,W,0.52,81.59,040417,,,A*47
$GPGGA,201152.858,3935.8052,N,10630.4180,W,1,04,2.6,3809.63,M,-18.84,M,,0000*5B
$GPRMC,201152.858,A,3935.8052,N,10630.4180,W,0.00,0.00,040417,,,A*70
$GPGGA,201357.925,3934.9625,N,10630.3153,W,6,03,2.4,3809.64,M,-18.85,M,,0000*5C
$GPRMC,201357.925,A,3934.9625,N,10630.3153,W,0.19,152.52,040417,,,A*7A
$GPGGA,201608.801,3935.0174,N,10630.5540,W,1,05,1.2,3097.13,M,-18.85,M,,0000*54
$GPRMC,201608.801,A,3935.0174,N,10630.5540,W,1.47,195.72,040417,,,A*7A
$GPGGA,201718.572,3935.0319,N,10630.5610,W,1,05,1.2,3056.09,M,-18.83,M,,0000*52
$GPRMC,201718.572,A,3935.0319,N,10630.5610,W,10.49,283.99,040417,,,A*43
$GPGGA,201825.051,3935.0189,N,10630.5486,W,1,05,1.2,3043.64,M,-18.85,M,,0000*58
$GPRMC,201825.051,A,3935.0189,N,10630.5486,W,1.04,233.43,040417,,,A*75
$GPGGA,201932.000,3935.0241,N,10630.5572,W,1,04,1.4,3040.47,M,-18.85,M,,0000*53
$GPRMC,201932.000,A,3935.0241,N,10630.5572,W,4.97,270.82,040417,,,A*7E
$GPGGA,202038.177,3935.0053,N,10630.5659,W,1,05,1.2,3018.41,M,-18.85,M,,0000*55
$GPRMC,202038.177,A,3935.0053,N,10630.5659,W,2.31,215.86,040417,,,A*79
$GPGGA,202147.809,3936.3764,N,10630.7271,W,1,05,2.6,3706.38,M,-18.85,M,,0000*52
$GPRMC,202147.809,A,3936.3764,N,10630.7271,W,51.62,346.77,040417,,,A*46
$GPGGA,202257.000,3935.0142,N,10630.5501,W,1,05,2.4,3069.90,M,-18.84,M,,0000*5E
$GPRMC,202257.000,A,3935.0142,N,10630.5501,W,0.97,238.95,040417,,,A*7F
$GPGGA,202403.239,3935.0193,N,10630.5594,W,1,05,1.2,3046.35,M,-18.86,M,,0000*54
$GPRMC,202403.239,A,3935.0193,N,10630.5594,W,3.96,225.26,040417,,,A*76
$GPGGA,202513.875,3935.0144,N,10630.5434,W,1,05,2.8,3100.88,M,-18.86,M,,0000*5B
$GPRMC,202513.875,A,3935.0144,N,10630.5434,W,2.27,270.41,040417,,,A*7F
$GPGGA,202623.000,3935.0187,N,10630.5505,W,1,05,3.0,3076.60,M,-18.84,M,,0000*50
$GPRMC,202623.000,A,3935.0187,N,10630.5505,W,1.96,278.65,040417,,,A*7E
$GPGGA,202728.176,3935.0211,N,10630.5391,W,1,06,1.4,3040.28,M,-18.85,M,,0000*50
$GPRMC,202728.176,A,3935.0211,N,10630.5391,W,3.32,137.37,040417,,,A*70
$GPGGA,202832.000,3935.0051,N,10630.5282,W,1,08,0.8,3108.29,M,-18.85,M,,0000*5E
$GPRMC,202832.000,A,3935.0051,N,10630.5282,W,0.19,215.52,040417,,,A*7B
$GPGGA,202936.927,3935.0062,N,10630.5197,W,1,07,1.0,3114.59,M,-18.85,M,,0000*5C
$GPRMC,202936.927,A,3935.0062,N,10630.5197,W,1.22,293.99,040417,,,A*75
$GPGGA,203037.678,3935.0032,N,10630.5257,W,1,07,1.0,3111.62,M,-18.85,M,,0000*57
$GPRMC,203037.678,A,3935.0032,N,10630.5257,W,1.80,149.87,040417,,,A*70
$GPGGA,203143.000,3934.9663,N,10630.5049,W,1,07,1.0,3087.96,M,-18.84,M,,0000*5F
$GPRMC,203143.000,A,3934.9663,N,10630.5049,W,1.57,233.02,040417,,,A*75
$GPGGA,203247.615,3934.8534,N,10630.4833,W,1,05,1.2,3149.35,M,-18.85,M,,0000*55
$GPRMC,203247.615,A,3934.8534,N,10630.4833,W,8.30,214.05,040417,,,A*7E
$GPGGA,203350.000,3934.6980,N,10630.4819,W,1,07,1.0,3242.04,M,-18.85,M,,0000*5F
$GPRMC,203350.000,A,3934.6980,N,10630.4819,W,12.05,160.38,040417,,,A*4D
$GPGGA,203454.000,3934.5347,N,10630.4871,W,1,07,1.0,3307.81,M,-18.85,M,,0000*5D
$GPRMC,203454.000,A,3934.5347,N,10630.4871,W,15.55,150.65,040417,,,A*4B
$GPGGA,203558.322,3934.3885,N,10630.4974,W,1,07,1.0,3367.09,M,-18.85,M,,0000*52
$GPRMC,203558.322,A,3934.3885,N,10630.4974,W,10.10,172.71,040417,,,A*43
$GPGGA,203701.000,3934.2235,N,10630.4827,W,1,07,1.0,3426.40,M,-18.85,M,,0000*57
$GPRMC,203701.000,A,3934.2235,N,10630.4827,W,16.30,148.91,040417,,,A*4A
$GPGGA,203804.000,3934.0620,N,10630.4916,W,1,07,1.0,3468.48,M,-18.85,M,,0000*5E
$GPRMC,203804.000,A,3934.0620,N,10630.4916,W,13.62,148.22,040417,,,A*4B
$GPGGA,203908.322,3933.9443,N,10630.5261,W,1,07,1.0,3433.78,M,-18.85,M,,0000*5E
$GPRMC,203908.322,A,3933.9443,N,10630.5261,W,0.66,332.29,040417,,,A*74
$GPGGA,204012.258,3933.9798,N,10630.5056,W,1,07,1.0,3444.01,M,-18.85,M,,0000*5A
$GPRMC,204012.258,A,3933.9798,N,10630.5056,W,20.85,6.26,040417,,,A*4A
$GPGGA,204117.000,3934.0272,N,10630.4187,W,1,07,1.0,3435.81,M,-18.85,M,,0000*5C
$GPRMC,204117.000,A,3934.0272,N,10630.4187,W,7.65,79.96,040417,,,A*4A
$GPGGA,204221.946,3934.0782,N,10630.3758,W,1,07,1.0,3416.75,M,-18.85,M,,0000*52
$GPRMC,204221.946,A,3934.0782,N,10630.3758,W,2.29,339.37,040417,,,A*7F
$GPGGA,204327.000,3934.1338,N,10630.3782,W,1,07,1.0,3376.31,M,-18.85,M,,0000*5C
$GPRMC,204327.000,A,3934.1338,N,10630.3782,W,10.55,330.21,040417,,,A*46
$GPGGA,204432.381,3934.1588,N,10630.3481,W,1,07,1.0,3391.51,M,-18.85,M,,0000*57
$GPRMC,204432.381,A,3934.1588,N,10630.3481,W,5.94,14.10,040417,,,A*4C
$GPGGA,204536.000,3934.1800,N,10630.2435,W,1,07,1.0,3360.71,M,-18.86,M,,0000*54
$GPRMC,204536.000,A,3934.1800,N,10630.2435,W,3.75,17.66,040417,,,A*4B
$GPGGA,204640.069,3934.2735,N,10630.1842,W,1,07,1.0,3323.03,M,-18.86,M,,0000*5E
$GPRMC,204640.069,A,3934.2735,N,10630.1842,W,8.35,14.08,040417,,,A*47
$GPGGA,204744.945,3934.3450,N,10630.1186,W,1,07,1.0,3277.29,M,-18.86,M,,0000*54
$GPRMC,204744.945,A,3934.3450,N,10630.1186,W,2.87,99.30,040417,,,A*48
$GPGGA,204849.756,3934.4477,N,10630.0949,W,1,07,1.0,3282.27,M,-18.85,M,,0000*55
$GPRMC,204849.756,A,3934.4477,N,10630.0949,W,12.09,351.72,040417,,,A*48
$GPGGA,204953.000,3934.5917,N,10630.1063,W,1,07,1.0,3251.34,M,-18.87,M,,0000*5F
$GPRMC,204953.000,A,3934.5917,N,10630.1063,W,9.77,349.90,040417,,,A*7A
$GPGGA,205057.568,3934.6833,N,10630.1388,W,1,07,1.0,3223.17,M,-18.86,M,,0000*5F
$GPRMC,205057.568,A,3934.6833,N,10630.1388,W,8.53,20.30,040417,,,A*4E
$GPGGA,205202.000,3934.7157,N,10630.1650,W,1,07,1.0,3202.08,M,-18.86,M,,0000*51
$GPRMC,205202.000,A,3934.7157,N,10630.1650,W,0.17,103.09,040417,,,A*7F
$GPGGA,205308.000,3934.7961,N,10630.1561,W,1,06,1.2,3202.60,M,-18.87,M,,0000*5A
$GPRMC,205308.000,A,3934.7961,N,10630.1561,W,11.93,1.64,040417,,,A*4C
$GPGGA,205412.006,3934.8424,N,10630.3152,W,1,06,1.2,3116.55,M,-18.85,M,,0000*57
$GPRMC,205412.006,A,3934.8424,N,10630.3152,W,10.73,276.31,040417,,,A*4E
$GPGGA,205516.000,3934.9372,N,10630.5608,W,1,06,1.2,3084.79,M,-18.85,M,,0000*5B
$GPRMC,205516.000,A,3934.9372,N,10630.5608,W,39.14,340.38,040417,,,A*41
$GPGGA,205620.756,3934.9884,N,10630.5284,W,1,07,1.0,3086.57,M,-18.85,M,,0000*56
$GPRMC,205620.756,A,3934.9884,N,10630.5284,W,5.55,116.06,040417,,,A*77
$GPGGA,205726.589,3934.9716,N,10630.5436,W,1,06,1.2,3055.54,M,-18.85,M,,0000*54
$GPRMC,205726.589,A,3934.9716,N,10630.5436,W,8.74,145.13,040417,,,A*77
$GPGGA,205831.000,3934.9724,N,10630.5449,W,1,06,1.2,3051.95,M,-18.84,M,,0000*58
$GPRMC,205831.000,A,3934.9724,N,10630.5449,W,10.06,161.17,040417,,,A*4D
$GPGGA,205935.000,3935.0284,N,10630.5140,W,1,06,1.2,3053.51,M,-18.86,M,,0000*5E
$GPRMC,205935.000,A,3935.0284,N,10630.5140,W,17.04,353.43,040417,,,A*44
$GPGGA,210039.000,3935.0675,N,10630.4254,W,1,06,1.2,3032.82,M,-18.85,M,,0000*58
$GPRMC,210039.000,A,3935.0675,N,10630.4254,W,9.46,347.40,040417,,,A*77
$GPGGA,210142.963,3935.1410,N,10630.3372,W,1,06,1.2,2952.98,M,-18.85,M,,0000*5E
$GPRMC,210142.963,A,3935.1410,N,10630.3372,W,27.44,355.12,040417,,,A*4E
$GPGGA,210247.838,3935.1002,N,10630.2628,W,1,06,1.2,2989.29,M,-18.86,M,,0000*54
$GPRMC,210247.838,A,3935.1002,N,10630.2628,W,10.57,137.02,040417,,,A*4A
$GPGGA,210352.000,3935.1282,N,10630.2543,W,1,06,1.2,2979.90,M,-18.86,M,,0000*5B
$GPRMC,210352.000,A,3935.1282,N,10630.2543,W,5.57,9.02,040417,,,A*70
$GPGGA,210455.000,3935.1733,N,10630.1311,W,1,06,1.2,2929.74,M,-18.85,M,,0000*5A
$GPRMC,210455.000,A,3935.1733,N,10630.1311,W,6.66,31.47,040417,,,A*46
$GPGGA,210558.000,3935.2102,N,10630.0094,W,1,06,1.2,2878.18,M,-18.86,M,,0000*52
$GPRMC,210558.000,A,3935.2102,N,10630.0094,W,9.21,149.95,040417,,,A*7F
$GPGGA,210702.000,3935.3247,N,10629.8777,W,1,06,1.2,2834.81,M,-18.86,M,,0000*5E
$GPRMC,210702.000,A,3935.3247,N,10629.8777,W,20.50,0.84,040417,,,A*4A
$GPGGA,210804.000,3935.2879,N,10629.8538,W,1,06,1.2,2826.93,M,-18.85,M,,0000*5B
$GPRMC,210804.000,A,3935.2879,N,10629.8538,W,15.93,190.95,040417,,,A*4D
$GPGGA,210907.000,3935.1552,N,10629.9679,W,1,06,1.2,2901.30,M,-18.86,M,,0000*57
$GPRMC,210907.000,A,3935.1552,N,10629.9679,W,14.38,244.09,040417,,,A*40
$GPGGA,211011.648,3935.0028,N,10630.0700,W,1,06,1.2,2962.25,M,-18.86,M,,0000*54
$GPRMC,211011.648,A,3935.0028,N,10630.0700,W,21.32,262.13,040417,,,A*41
$GPGGA,211115.000,3934.8452,N,10630.1457,W,1,06,1.2,3112.67,M,-18.86,M,,0000*53
$GPRMC,211115.000,A,3934.8452,N,10630.1457,W,15.93,188.19,040417,,,A*4F
$GPGGA,211219.000,3934.6980,N,10630.2497,W,1,07,1.0,3207.35,M,-18.85,M,,0000*5F
$GPRMC,211219.000,A,3934.6980,N,10630.2497,W,16.54,185.95,040417,,,A*42
$GPGGA,211323.000,3934.6200,N,10630.3188,W,1,06,1.2,3249.77,M,-18.85,M,,0000*51
$GPRMC,211323.000,A,3934.6200,N,10630.3188,W,9.42,161.73,040417,,,A*78
$GPGGA,211427.000,3934.7357,N,10630.2278,W,1,06,1.2,3199.65,M,-18.85,M,,0000*50
$GPRMC,211427.000,A,3934.7357,N,10630.2278,W,10.67,61.82,040417,,,A*74
$GPGGA,211531.000,3934.7989,N,10630.1690,W,1,06,1.2,3160.42,M,-18.85,M,,0000*5D
$GPRMC,211531.000,A,3934.7989,N,10630.1690,W,2.48,27.75,040417,,,A*4E
$GPGGA,211635.000,3934.8445,N,10630.4303,W,1,06,1.4,3100.93,M,-18.85,M,,0000*5E
$GPRMC,211635.000,A,3934.8445,N,10630.4303,W,11.81,256.97,040417,,,A*4E
$GPGGA,211740.000,3934.9619,N,10630.5926,W,1,06,1.4,3081.63,M,-18.85,M,,0000*5C
$GPRMC,211740.000,A,3934.9619,N,10630.5926,W,23.42,346.78,040417,,,A*44
$GPGGA,211840.000,3934.9698,N,10630.6011,W,1,06,1.4,3085.45,M,-18.85,M,,0000*54
$GPRMC,211840.000,A,3934.9698,N,10630.6011,W,19.41,346.75,040417,,,A*4B
$GPGGA,211946.000,3934.9633,N,10630.5530,W,1,06,1.4,3122.08,M,-18.84,M,,0000*53
$GPRMC,211946.000,A,3934.9633,N,10630.5530,W,9.73,127.75,040417,,,A*7D
$GPGGA,212049.598,3935.0817,N,10630.6423,W,1,07,1.0,3068.95,M,-18.84,M,,0000*5C
$GPRMC,212049.598,A,3935.0817,N,10630.6423,W,23.81,349.97,040417,,,A*4F
$GPGGA,212154.000,3935.2243,N,10630.6965,W,1,06,1.4,2976.39,M,-18.85,M,,0000*56
$GPRMC,212154.000,A,3935.2243,N,10630.6965,W,5.59,6.44,040417,,,A*77
$GPGGA,212300.000,3935.3880,N,10630.7625,W,1,06,1.4,2845.35,M,-18.84,M,,0000*57
$GPRMC,212300.000,A,3935.3880,N,10630.7625,W,4.68,355.15,040417,,,A*78
$GPGGA,212404.971,3935.5662,N,10630.8281,W,1,06,1.4,2758.51,M,-18.84,M,,0000*5B
$GPRMC,212404.971,A,3935.5662,N,10630.8281,W,22.12,356.59,040417,,,A*47
$GPGGA,212510.000,3935.6648,N,10630.8736,W,1,06,1.4,2715.71,M,-18.84,M,,0000*59
$GPRMC,212510.000,A,3935.6648,N,10630.8736,W,6.80,354.06,040417,,,A*7B
$GPGGA,212613.000,3935.8288,N,10630.9289,W,1,07,1.0,2666.15,M,-18.84,M,,0000*5D
$GPRMC,212613.000,A,3935.8288,N,10630.9289,W,7.83,349.70,040417,,,A*72
$GPGGA,212717.000,3935.9806,N,10630.9771,W,1,06,1.4,2564.24,M,-18.84,M,,0000*51
$GPRMC,212717.000,A,3935.9806,N,10630.9771,W,1.01,337.76,040417,,,A*7B
$GPGGA,212820.000,3936.1449,N,10631.0323,W,1,06,1.4,2467.35,M,-18.83,M,,0000*58
$GPRMC,212820.000,A,3936.1449,N,10631.0323,W,5.28,346.26,040417,,,A*7B
$GPGGA,212924.000,3936.1873,N,10631.0171,W,1,07,1.0,2504.67,M,-18.83,M,,0000*5B
$GPRMC,212924.000,A,3936.1873,N,10631.0171,W,1.14,352.41,040417,,,A*71
$GPGGA,213028.000,3936.2177,N,10630.9985,W,1,05,1.8,2427.72,M,-18.83,M,,0000*54
$GPRMC,213028.000,A,3936.2177,N,10630.9985,W,1.59,45.54,040417,,,A*48
$GPGGA,213134.283,3936.2302,N,10631.0015,W,1,05,1.8,2404.42,M,-18.84,M,,0000*5C
$GPRMC,213134.283,A,3936.2302,N,10631.0015,W,1.59,102.36,040417,,,A*73
$GPGGA,215511.649,3936.2018,N,10631.0104,W,1,05,2.0,2350.72,M,-18.83,M,,0000*5B
$GPRMC,215511.649,A,3936.2018,N,10631.0104,W,0.38,89.46,040417,,,A*4E
$GPGGA,215615.000,3936.2175,N,10631.0068,W,1,05,2.0,2399.01,M,-18.85,M,,0000*51
$GPRMC,215615.000,A,3936.2175,N,10631.0068,W,1.71,56.07,040417,,,A*48
$GPGGA,215719.000,3936.2060,N,10631.0320,W,1,05,2.0,2367.76,M,-18.88,M,,0000*5A
$GPRMC,215719.000,A,3936.2060,N,10631.0320,W,4.35,287.19,040417,,,A*7B
$GPGGA,215824.000,3936.2694,N,10631.0225,W,1,05,2.0,2434.42,M,-18.83,M,,0000*5F
$GPRMC,215824.000,A,3936.2694,N,10631.0225,W,0.60,20.89,040417,,,A*41
$GPGGA,215934.281,3936.2820,N,10631.0026,W,1,05,2.0,2478.31,M,-18.84,M,,0000*5F
$GPRMC,215934.281,A,3936.2820,N,10631.0026,W,0.23,191.03,040417,,,A*74
$GPGGA,220549.939,3935.7047,N,10630.9823,W,1,06,1.4,2227.75,M,-18.84,M,,0000*55
$GPRMC,220549.939,A,3935.7047,N,10630.9823,W,76.52,176.92,040417,,,A*40
$GPGGA,220703.239,3936.2626,N,10631.0074,W,1,06,1.4,2409.61,M,-18.83,M,,0000*5F
$GPRMC,220703.239,A,3936.2626,N,10631.0074,W,7.01,67.79,040417,,,A*46
$GPGGA,221237.560,3936.2485,N,10630.9852,W,1,06,1.4,2448.31,M,-18.84,M,,0000*5F
$GPRMC,221237.560,A,3936.2485,N,10630.9852,W,10.78,137.77,040417,,,A*43
$GPGGA,221341.000,3936.2209,N,10631.0065,W,1,06,1.4,2438.11,M,-18.84,M,,0000*5F
$GPRMC,221341.000,A,3936.2209,N,10631.0065,W,11.35,175.10,040417,,,A*49
$GPGGA,221444.000,3936.2159,N,10631.0472,W,1,06,1.4,2436.23,M,-18.83,M,,0000*51
$GPRMC,221444.000,A,3936.2159,N,10631.0472,W,5.17,136.25,040417,,,A*7B
$GPGGA,221547.552,3936.1960,N,10631.0601,W,1,06,1.4,2515.21,M,-18.84,M,,0000*53
$GPRMC,221547.552,A,3936.1960,N,10631.0601,W,6.92,146.54,040417,,,A*73
$GPGGA,221900.781,3936.1850,N,10631.1103,W,1,06,1.4,2524.25,M,-18.83,M,,0000*57
$GPRMC,221900.781,A,3936.1850,N,10631.1103,W,2.29,99.76,040417,,,A*41
$GPGGA,222004.676,3936.1872,N,10631.1056,W,1,06,1.4,2519.12,M,-18.83,M,,0000*5B
$GPRMC,222004.676,A,3936.1872,N,10631.1056,W,5.83,92.20,040417,,,A*48
$GPGGA,222108.613,3936.1880,N,10631.1102,W,1,06,1.4,2516.67,M,-18.83,M,,0000*55
$GPRMC,222108.613,A,3936.1880,N,10631.1102,W,6.33,86.59,040417,,,A*48
$GPGGA,222210.559,3936.1907,N,10631.1125,W,1,06,1.4,2516.56,M,-18.83,M,,0000*5B
$GPRMC,222210.559,A,3936.1907,N,10631.1125,W,6.99,127.61,040417,,,A*75
$GPGGA,222316.672,3936.2132,N,10631.1054,W,1,05,1.8,2424.45,M,-18.83,M,,0000*51
$GPRMC,222316.672,A,3936.2132,N,10631.1054,W,7.91,139.34,040417,,,A*74
$GPGGA,222420.426,3936.1837,N,10631.1119,W,1,06,1.4,2510.44,M,-18.84,M,,0000*58
$GPRMC,222420.426,A,3936.1837,N,10631.1119,W,11.29,120.87,040417,,,A*46
$GPGGA,222523.383,3936.1867,N,10631.1088,W,1,06,1.4,2486.85,M,-18.83,M,,0000*5A
$GPRMC,222523.383,A,3936.1867,N,10631.1088,W,11.74,119.14,040417,,,A*48
$GPGGA,222627.448,3936.4854,N,10631.1720,W,1,06,1.4,2386.67,M,-18.83,M,,0000*56
$GPRMC,222627.448,A,3936.4854,N,10631.1720,W,17.10,11.11,040417,,,A*77
$GPGGA,222732.000,3936.9862,N,10631.4278,W,1,06,1.4,2383.91,M,-18.83,M,,0000*52
$GPRMC,222732.000,A,3936.9862,N,10631.4278,W,25.77,350.21,040417,,,A*4A
$GPGGA,222837.195,3937.4870,N,10631.6081,W,1,06,1.4,2330.00,M,-18.82,M,,0000*5D
$GPRMC,222837.195,A,3937.4870,N,10631.6081,W,20.91,14.55,040417,,,A*79
$GPGGA,222940.007,3937.8862,N,10631.6875,W,1,06,1.4,2251.68,M,-18.81,M,,0000*51
$GPRMC,222940.007,A,3937.8862,N,10631.6875,W,8.92,50.53,040417,,,A*41
$GPGGA,223045.000,3938.0198,N,10632.0314,W,1,06,1.4,2269.19,M,-18.81,M,,0000*54
$GPRMC,223045.000,A,3938.0198,N,10632.0314,W,4.74,281.60,040417,,,A*73
$GPGGA,223149.892,3938.0394,N,10632.3156,W,1,06,1.4,2248.27,M,-18.80,M,,0000*5C
$GPRMC,223149.892,A,3938.0394,N,10632.3156,W,16.13,139.97,040417,,,A*4E
$GPGGA,223253.000,3938.0591,N,10632.3600,W,1,06,1.4,2243.67,M,-18.80,M,,0000*5F
$GPRMC,223253.000,A,3938.0591,N,10632.3600,W,7.75,355.85,040417,,,A*79
$GPGGA,223357.000,3938.0545,N,10632.3511,W,1,06,1.4,2256.31,M,-18.80,M,,0000*57
$GPRMC,223357.000,A,3938.0545,N,10632.3511,W,10.36,114.24,040417,,,A*4B
$GPGGA,223500.000,3938.0577,N,10632.3579,W,1,06,1.4,2256.86,M,-18.79,M,,0000*56
$GPRMC,223500.000,A,3938.0577,N,10632.3579,W,10.84,152.60,040417,,,A*4B
$GPGGA,223604.000,3938.0609,N,10632.3530,W,1,06,1.4,2245.93,M,-18.79,M,,0000*50
$GPRMC,223604.000,A,3938.0609,N,10632.3530,W,7.89,90.60,040417,,,A*4F
$GPGGA,223707.703,3938.0645,N,10632.3201,W,1,06,1.4,2256.69,M,-18.78,M,,0000*5D
$GPRMC,223707.703,A,3938.0645,N,10632.3201,W,12.38,110.67,040417,,,A*44
$GPGGA,223811.000,3938.0231,N,10631.8618,W,1,06,1.4,2260.26,M,-18.80,M,,0000*5B
$GPRMC,223811.000,A,3938.0231,N,10631.8618,W,38.50,105.29,040417,,,A*43
$GPGGA,223914.000,3937.8475,N,10631.3795,W,1,06,1.4,2258.68,M,-18.80,M,,0000*50
$GPRMC,223914.000,A,3937.8475,N,10631.3795,W,16.21,121.23,040417,,,A*4F
$GPGGA,224018.000,3938.1574,N,10631.3387,W,1,06,1.4,2257.55,M,-18.82,M,,0000*50
$GPRMC,224018.000,A,3938.1574,N,10631.3387,W,24.16,6.30,040417,,,A*4F
$GPGGA,224121.000,3938.1525,N,10631.3750,W,1,06,1.4,2267.53,M,-18.84,M,,0000*52
$GPRMC,224121.000,A,3938.1525,N,10631.3750,W,0.91,268.17,040417,,,A*78
$GPGGA,224225.000,3938.1628,N,10631.3588,W,1,06,1.4,2284.71,M,-18.83,M,,0000*56
$GPRMC,224225.000,A,3938.1628,N,10631.3588,W,6.49,99.49,040417,,,A*42
$GPGGA,224328.000,3938.1652,N,10631.3651,W,1,06,1.4,2281.57,M,-18.84,M,,0000*56
$GPRMC,224328.000,A,3938.1652,N,10631.3651,W,2.07,111.22,040417,,,A*76
$GPGGA,224432.000,3938.1608,N,10631.3559,W,1,06,1.4,2284.89,M,-18.84,M,,0000*58
$GPRMC,224432.000,A,3938.1608,N,10631.3559,W,9.48,104.08,040417,,,A*72
$GPGGA,224535.000,3938.1636,N,10631.3624,W,1,06,1.4,2283.90,M,-18.85,M,,0000*54
$GPRMC,224535.000,A,3938.1636,N,10631.3624,W,6.02,104.61,040417,,,A*7E
$GPGGA,224638.000,3938.1604,N,10631.3572,W,1,06,1.4,2272.65,M,-18.85,M,,0000*5F
$GPRMC,224638.000,A,3938.1604,N,10631.3572,W,5.83,99.91,040417,,,A*41
$GPGGA,224742.000,3938.1844,N,10631.3789,W,1,06,1.4,2136.32,M,-18.83,M,,0000*58
$GPRMC,224742.000,A,3938.1844,N,10631.3789,W,6.43,105.00,040417,,,A*72
$GPGGA,224846.000,3938.1618,N,10631.3580,W,1,06,1.6,2265.71,M,-18.82,M,,0000*5E
$GPRMC,224846.000,A,3938.1618,N,10631.3580,W,5.59,95.99,040417,,,A*45
$GPGGA,224949.000,3938.1680,N,10631.3733,W,1,06,1.6,2258.91,M,-18.79,M,,0000*5F
$GPRMC,224949.000,A,3938.1680,N,10631.3733,W,0.17,99.75,040417,,,A*41
$GPGGA,225052.000,3938.1728,N,10631.3732,W,1,06,1.6,2266.89,M,-18.81,M,,0000*5C
$GPRMC,225052.000,A,3938.1728,N,10631.3732,W,2.23,89.55,040417,,,A*47
$GPGGA,225155.845,3938.1747,N,10631.3714,W,1,06,1.6,2205.94,M,-18.82,M,,0000*54
$GPRMC,225155.845,A,3938.1747,N,10631.3714,W,6.78,103.30,040417,,,A*7F
$GPGGA,225259.786,3938.1991,N,10631.4085,W,1,06,1.6,2055.91,M,-18.82,M,,0000*54
$GPRMC,225259.786,A,3938.1991,N,10631.4085,W,0.83,97.08,040417,,,A*48
$GPGGA,225403.000,3938.1755,N,10631.3711,W,1,05,1.8,2213.05,M,-18.81,M,,0000*5C
$GPRMC,225403.000,A,3938.1755,N,10631.3711,W,3.07,96.56,040417,,,A*46
$GPGGA,225507.000,3938.1794,N,10631.3784,W,1,05,1.8,2186.98,M,-18.82,M,,0000*50
$GPRMC,225507.000,A,3938.1794,N,10631.3784,W,1.03,95.57,040417,,,A*46
$GPGGA,225610.000,3938.1728,N,10631.3714,W,1,05,1.8,2210.16,M,-18.82,M,,0000*51
$GPRMC,225610.000,A,3938.1728,N,10631.3714,W,1.06,95.82,040417,,,A*40
$GPGGA,225713.781,3938.1981,N,10631.4097,W,1,05,1.8,2050.23,M,-18.83,M,,0000*5A
$GPRMC,225713.781,A,3938.1981,N,10631.4097,W,0.44,94.15,040417,,,A*42
$GPGGA,225817.718,3938.1818,N,10631.3748,W,1,05,1.8,2180.72,M,-18.81,M,,0000*58
$GPRMC,225817.718,A,3938.1818,N,10631.3748,W,2.46,97.77,040417,,,A*4D
$GPGGA,225921.657,3938.1739,N,10631.3750,W,1,05,1.8,2182.01,M,-18.82,M,,0000*56
$GPRMC,225921.657,A,3938.1739,N,10631.3750,W,1.22,101.55,040417,,,A*79
$GPGGA,230025.568,3938.1450,N,10631.3518,W,1,05,1.8,2187.58,M,-18.82,M,,0000*5B
$GPRMC,230025.568,A,3938.1450,N,10631.3518,W,12.07,137.50,040417,,,A*48
$GPGGA,230129.504,3938.3032,N,10631.3642,W,1,05,1.8,2229.52,M,-18.82,M,,0000*5F
$GPRMC,230129.504,A,3938.3032,N,10631.3642,W,26.55,299.55,040417,,,A*43
$GPGGA,230233.440,3938.2841,N,10632.7206,W,1,05,1.8,2151.60,M,-18.83,M,,0000*54
$GPRMC,230233.440,A,3938.2841,N,10632.7206,W,56.79,266.25,040417,,,A*4A
$GPGGA,230337.000,3938.5611,N,10634.1120,W,1,06,1.6,2243.20,M,-18.79,M,,0000*56
$GPRMC,230337.000,A,3938.5611,N,10634.1120,W,61.34,269.64,040417,,,A*43
$GPGGA,230440.505,3939.0141,N,10635.4276,W,1,05,1.8,2152.35,M,-18.76,M,,0000*56
$GPRMC,230440.505,A,3939.0141,N,10635.4276,W,57.65,290.72,040417,,,A*46
$GPGGA,230544.441,3939.2827,N,10636.7838,W,1,05,1.8,2108.01,M,-18.73,M,,0000*54
$GPRMC,230544.441,A,3939.2827,N,10636.7838,W,63.85,285.66,040417,,,A*41
$GPGGA,230648.000,3939.5236,N,10638.1390,W,1,05,1.8,2106.71,M,-18.70,M,,0000*5C
$GPRMC,230648.000,A,3939.5236,N,10638.1390,W,54.60,303.02,040417,,,A*41
$GPGGA,230752.379,3940.5116,N,10638.8854,W,1,05,1.8,2027.29,M,-18.67,M,,0000*57
$GPRMC,230752.379,A,3940.5116,N,10638.8854,W,62.10,339.38,040417,,,A*41
$GPGGA,230856.316,3941.2825,N,10639.7626,W,1,05,1.8,2056.70,M,-18.66,M,,0000*54
$GPRMC,230856.316,A,3941.2825,N,10639.7626,W,57.94,340.05,040417,,,A*43
$GPGGA,231000.000,3942.0268,N,10640.7722,W,1,06,1.8,2117.85,M,-18.63,M,,0000*5B
$GPRMC,231000.000,A,3942.0268,N,10640.7722,W,57.92,279.69,040417,,,A*43
$GPGGA,231104.315,3942.7170,N,10641.8866,W,1,05,1.8,1832.40,M,-18.60,M,,0000*51
$GPRMC,231104.315,A,3942.7170,N,10641.8866,W,59.53,294.05,040417,,,A*47
$GPGGA,231208.251,3942.4431,N,10643.2618,W,1,05,1.8,2003.63,M,-18.58,M,,0000*50
$GPRMC,231208.251,A,3942.4431,N,10643.2618,W,65.44,240.29,040417,,,A*4B
$GPGGA,231312.191,3941.8065,N,10644.5467,W,1,05,1.8,1993.55,M,-18.55,M,,0000*5E
$GPRMC,231312.191,A,3941.8065,N,10644.5467,W,64.69,238.02,040417,,,A*46
$GPGGA,231416.128,3941.0146,N,10645.6239,W,1,05,1.8,1813.82,M,-18.52,M,,0000*5C
$GPRMC,231416.128,A,3941.0146,N,10645.6239,W,62.74,244.02,040417,,,A*41
$GPGGA,231520.073,3940.6403,N,10646.8049,W,1,05,2.0,1942.61,M,-18.51,M,,0000*5C
$GPRMC,231520.073,A,3940.6403,N,10646.8049,W,58.52,221.17,040417,,,A*4B
$GPGGA,231624.075,3940.3500,N,10648.1143,W,1,05,2.0,1943.40,M,-18.47,M,,0000*53
$GPRMC,231624.075,A,3940.3500,N,10648.1143,W,58.04,245.03,040417,,,A*45
$GPGGA,231728.012,3939.8519,N,10649.3151,W,1,05,2.0,1930.73,M,-18.44,M,,0000*55
$GPRMC,231728.012,A,3939.8519,N,10649.3151,W,54.83,241.15,040417,,,A*44
$GPGGA,231832.000,3939.5378,N,10649.6259,W,1,05,2.0,1922.40,M,-18.42,M,,0000*55
$GPRMC,231832.000,A,3939.5378,N,10649.6259,W,20.99,138.42,040417,,,A*46
$GPGGA,231937.787,3939.3219,N,10649.4656,W,1,05,2.0,1958.01,M,-18.41,M,,0000*5B
$GPRMC,231937.787,A,3939.3219,N,10649.4656,W,15.18,107.69,040417,,,A*49
$GPGGA,232041.413,3939.4316,N,10649.1057,W,1,05,2.0,1921.66,M,-18.42,M,,0000*59
$GPRMC,232041.413,A,3939.4316,N,10649.1057,W,9.34,58.22,040417,,,A*40
$GPGGA,232145.225,3939.4514,N,10649.0639,W,1,05,2.0,1952.05,M,-18.43,M,,0000*54
$GPRMC,232145.225,A,3939.4514,N,10649.0639,W,4.82,10.86,040417,,,A*4F
$GPGGA,232250.036,3939.4534,N,10649.0534,W,1,05,2.0,2008.53,M,-18.42,M,,0000*58
$GPRMC,232250.036,A,3939.4534,N,10649.0534,W,1.18,47.53,040417,,,A*48
$GPGGA,232353.724,3939.3748,N,10648.8009,W,1,05,2.0,2597.35,M,-18.43,M,,0000*50
$GPRMC,232353.724,A,3939.3748,N,10648.8009,W,4.74,58.43,040417,,,A*42
$GPGGA,232458.536,3939.4321,N,10649.0454,W,1,05,2.0,1936.83,M,-18.42,M,,0000*5C
$GPRMC,232458.536,A,3939.4321,N,10649.0454,W,12.71,117.29,040417,,,A*42
$GPGGA,232602.222,3939.4468,N,10649.0399,W,1,05,2.0,1977.31,M,-18.42,M,,0000*53
$GPRMC,232602.222,A,3939.4468,N,10649.0399,W,8.47,81.30,040417,,,A*49
$GPGGA,232706.035,3939.4466,N,10649.0388,W,1,05,2.0,1993.73,M,-18.43,M,,0000*51
$GPRMC,232706.035,A,3939.4466,N,10649.0388,W,9.40,78.99,040417,,,A*45
$GPGGA,015619.887,3938.4880,N,10650.0320,W,1,04,3.2,1833.46,M,-18.41,M,,0000*5A
$GPRMC,015619.887,A,3938.4880,N,10650.0320,W,0.15,75.52,050417,,,A*41
$GPGGA,015730.572,3938.4855,N,10650.0259,W,1,04,3.4,1780.04,M,-18.41,M,,0000*57
$GPRMC,015730.572,A,3938.4855,N,10650.0259,W,12.28,87.66,050417,,,A*7C
$GPGGA,015841.633,3938.4848,N,10650.1096,W,1,04,3.4,1706.07,M,-18.41,M,,0000*59
$GPRMC,015841.633,A,3938.4848,N,10650.1096,W,1.26,33.43,050417,,,A*4B
$GPGGA,020009.628,3938.4784,N,10649.7416,W,6,03,3.2,1751.77,M,-18.41,M,,0000*5F
$GPRMC,020009.628,A,3938.4784,N,10649.7416,W,1.26,49.50,050417,,,A*41
$GPGGA,020130.759,3938.4854,N,10649.8541,W,1,06,1.4,2128.68,M,-18.41,M,,0000*5E
$GPRMC,020130.759,A,3938.4854,N,10649.8541,W,0.99,309.61,050417,,,A*73
$GPGGA,020235.706,3938.4816,N,10649.8518,W,1,06,1.4,2029.49,M,-18.41,M,,0000*5B
$GPRMC,020235.706,A,3938.4816,N,10649.8518,W,0.11,248.62,050417,,,A*72
$GPGGA,020344.390,3938.4869,N,10649.9638,W,1,05,2.4,1886.70,M,-18.41,M,,0000*5B
$GPRMC,020344.390,A,3938.4869,N,10649.9638,W,0.21,92.69,050417,,,A*4B
$GPGGA,020450.391,3938.4899,N,10649.8546,W,1,05,2.4,2055.09,M,-18.41,M,,0000*57
$GPRMC,020450.391,A,3938.4899,N,10649.8546,W,0.38,16.34,050417,,,A*40
$GPGGA,020557.225,3938.5015,N,10649.8859,W,1,05,2.4,2191.28,M,-18.41,M,,0000*5B
$GPRMC,020557.225,A,3938.5015,N,10649.8859,W,0.33,118.01,050417,,,A*74
$GPGGA,020700.785,3938.4840,N,10649.8446,W,1,05,2.4,2030.41,M,-18.41,M,,0000*5A
$GPRMC,020700.785,A,3938.4840,N,10649.8446,W,0.68,157.36,050417,,,A*71
$GPGGA,020805.518,3938.4908,N,10649.8448,W,1,05,2.6,2038.05,M,-18.41,M,,0000*5F
$GPRMC,020805.518,A,3938.4908,N,10649.8448,W,0.62,182.81,050417,,,A*70
$GPGGA,020909.145,3938.4869,N,10649.8570,W,1,05,2.6,2053.60,M,-18.41,M,,0000*5C
$GPRMC,020909.145,A,3938.4869,N,10649.8570,W,0.81,358.00,050417,,,A*7C
$GPGGA,021013.933,3938.4900,N,10649.8508,W,1,05,2.6,2051.19,M,-18.41,M,,0000*5B
$GPRMC,021013.933,A,3938.4900,N,10649.8508,W,0.42,130.97,050417,,,A*7A
$GPGGA,021118.458,3938.4942,N,10649.8523,W,1,05,2.8,2062.86,M,-18.41,M,,0000*56
$GPRMC,021118.458,A,3938.4942,N,10649.8523,W,0.77,155.96,050417,,,A*7B
$GPGGA,021224.184,3938.4791,N,10649.8471,W,1,05,2.8,2010.13,M,-18.41,M,,0000*51
$GPRMC,021224.184,A,3938.4791,N,10649.8471,W,1.41,154.39,050417,,,A*75
$GPGGA,021328.000,3938.4791,N,10649.8577,W,1,05,2.8,2018.95,M,-18.41,M,,0000*50
$GPRMC,021328.000,A,3938.4791,N,10649.8577,W,2.02,193.09,050417,,,A*7E
$GPGGA,021431.203,3938.4844,N,10649.8524,W,1,05,3.0,2029.80,M,-18.41,M,,0000*50
$GPRMC,021431.203,A,3938.4844,N,10649.8524,W,1.73,239.72,050417,,,A*7B
$GPGGA,021536.000,3938.4819,N,10649.8498,W,1,06,1.4,2019.68,M,-18.41,M,,0000*59
$GPRMC,021536.000,A,3938.4819,N,10649.8498,W,0.73,59.09,050417,,,A*4B
$GPGGA,021646.553,3938.4783,N,10649.8431,W,1,05,3.2,2000.21,M,-18.41,M,,0000*53
$GPRMC,021646.553,A,3938.4783,N,10649.8431,W,1.10,163.91,050417,,,A*7E
$GPGGA,021757.553,3938.4907,N,10649.8394,W,1,05,3.2,2012.09,M,-18.41,M,,0000*51
$GPRMC,021757.553,A,3938.4907,N,10649.8394,W,9.19,33.35,050417,,,A*4E
$GPGGA,021908.553,3938.3853,N,10649.8633,W,1,04,5.6,1797.38,M,-18.41,M,,0000*52
$GPRMC,021908.553,A,3938.3853,N,10649.8633,W,0.56,30.57,050417,,,A*40
$GPGGA,022020.000,3938.4610,N,10649.8537,W,1,05,3.4,1963.28,M,-18.40,M,,0000*58
$GPRMC,022020.000,A,3938.4610,N,10649.8537,W,0.95,28.15,050417,,,A*4A
$GPGGA,022130.491,3938.4605,N,10649.8582,W,1,05,3.6,1956.53,M,-18.41,M,,0000*57
$GPRMC,022130.491,A,3938.4605,N,10649.8582,W,4.12,15.10,050417,,,A*4C
$GPGGA,022241.489,3938.5071,N,10649.8494,W,1,05,3.8,2076.50,M,-18.41,M,,0000*5C
$GPRMC,022241.489,A,3938.5071,N,10649.8494,W,1.49,135.37,050417,,,A*7F
$GPGGA,022352.489,3938.4957,N,10649.8365,W,1,05,3.8,2039.35,M,-18.40,M,,0000*53
$GPRMC,022352.489,A,3938.4957,N,10649.8365,W,0.31,46.51,050417,,,A*42
$GPGGA,022459.491,3938.4945,N,10649.8605,W,1,05,4.0,2079.80,M,-18.41,M,,0000*52
$GPRMC,022459.491,A,3938.4945,N,10649.8605,W,0.64,330.23,050417,,,A*70
$GPGGA,022613.488,3938.4798,N,10649.8480,W,1,05,4.2,2026.32,M,-18.41,M,,0000*56
$GPRMC,022613.488,A,3938.4798,N,10649.8480,W,0.00,347.26,050417,,,A*72
$GPGGA,022725.490,3938.4778,N,10649.8525,W,1,05,4.2,2031.74,M,-18.41,M,,0000*5F
$GPRMC,022725.490,A,3938.4778,N,10649.8525,W,0.54,156.34,050417,,,A*7F
$GPGGA,022836.487,3938.3629,N,10649.8786,W,1,04,3.4,1772.63,M,-18.41,M,,0000*58
$GPRMC,022836.487,A,3938.3629,N,10649.8786,W,0.50,80.99,050417,,,A*44
$GPGGA,022945.490,3938.4923,N,10649.8293,W,1,05,4.6,2025.11,M,-18.41,M,,0000*5F
$GPRMC,022945.490,A,3938.4923,N,10649.8293,W,7.73,55.65,050417,,,A*49
$GPGGA,023058.499,3938.4797,N,10649.8392,W,1,05,4.8,2008.67,M,-18.41,M,,0000*53
$GPRMC,023058.499,A,3938.4797,N,10649.8392,W,0.11,59.53,050417,,,A*4F
$GPGGA,023209.500,3938.5182,N,10649.8545,W,1,04,5.2,2167.05,M,-18.41,M,,0000*5D
$GPRMC,023209.500,A,3938.5182,N,10649.8545,W,0.42,121.83,050417,,,A*72
$GPGGA,023318.499,3938.4742,N,10649.8457,W,1,05,5.2,2004.78,M,-18.41,M,,0000*5B
$GPRMC,023318.499,A,3938.4742,N,10649.8457,W,2.41,190.46,050417,,,A*79
$GPGGA,023431.501,3938.4715,N,10649.8606,W,1,05,5.4,1986.02,M,-18.41,M,,0000*58
$GPRMC,023431.501,A,3938.4715,N,10649.8606,W,3.30,290.98,050417,,,A*76
$GPGGA,023542.500,3938.4843,N,10649.8433,W,1,05,5.4,2012.24,M,-18.41,M,,0000*57
$GPRMC,023542.500,A,3938.4843,N,10649.8433,W,0.46,174.43,050417,,,A*77
$GPGGA,023653.500,3938.4873,N,10649.8444,W,1,05,5.6,2060.35,M,-18.41,M,,0000*50
$GPRMC,023653.500,A,3938.4873,N,10649.8444,W,1.73,163.69,050417,,,A*7E
$GPGGA,023800.498,3938.5218,N,10649.8420,W,1,04,6.2,2154.97,M,-18.41,M,,0000*54
$GPRMC,023800.498,A,3938.5218,N,10649.8420,W,1.30,349.19,050417,,,A*78
$GPGGA,023915.499,3938.4813,N,10649.8403,W,1,05,6.0,2028.97,M,-18.41,M,,0000*58
$GPRMC,023915.499,A,3938.4813,N,10649.8403,W,0.42,10.98,050417,,,A*4F
$GPGGA,024026.500,3938.5233,N,10649.8384,W,1,05,6.2,2141.01,M,-18.41,M,,0000*55
$GPRMC,024026.500,A,3938.5233,N,10649.8384,W,2.07,188.01,050417,,,A*72
$GPGGA,024137.499,3938.4972,N,10649.8539,W,1,05,6.4,2046.28,M,-18.41,M,,0000*51
$GPRMC,024137.499,A,3938.4972,N,10649.8539,W,1.69,137.91,050417,,,A*7B
$GPGGA,024248.499,3938.5120,N,10649.8465,W,1,05,6.6,2064.14,M,-18.41,M,,0000*51
$GPRMC,024248.499,A,3938.5120,N,10649.8465,W,0.69,40.82,050417,,,A*44
$GPGGA,024359.474,3938.4681,N,10649.8588,W,1,04,4.0,2001.70,M,-18.41,M,,0000*58
$GPRMC,024359.474,A,3938.4681,N,10649.8588,W,1.06,16.27,050417,,,A*4D
$GPGGA,024510.507,3938.4984,N,10649.8482,W,1,05,6.8,2043.18,M,-18.37,M,,0000*55
$GPRMC,024510.507,A,3938.4984,N,10649.8482,W,1.18,330.67,050417,,,A*7E
$GPGGA,024619.505,3938.5051,N,10649.8464,W,1,05,6.8,2062.69,M,-18.41,M,,0000*51
$GPRMC,024619.505,A,3938.5051,N,10649.8464,W,0.34,297.02,050417,,,A*7E
$GPGGA,024732.485,3938.5418,N,10649.8275,W,1,05,7.0,2123.58,M,-18.41,M,,0000*50
$GPRMC,024732.485,A,3938.5418,N,10649.8275,W,0.73,6.63,050417,,,A*7E
$GPGGA,024843.486,3938.5148,N,10649.8397,W,1,05,7.0,2088.05,M,-18.41,M,,0000*5F
$GPRMC,024843.486,A,3938.5148,N,10649.8397,W,1.76,1.58,050417,,,A*72
$GPGGA,024954.486,3938.5246,N,10649.8410,W,1,04,7.8,2136.30,M,-18.41,M,,0000*56
$GPRMC,024954.486,A,3938.5246,N,10649.8410,W,1.04,179.18,050417,,,A*7F
$GPGGA,025103.507,3938.5404,N,10649.8395,W,1,04,8.0,2143.13,M,-18.41,M,,0000*5B
$GPRMC,025103.507,A,3938.5404,N,10649.8395,W,2.44,185.82,050417,,,A*71
$GPGGA,025216.486,3938.5411,N,10649.8374,W,1,04,6.0,2164.79,M,-18.41,M,,0000*58
$GPRMC,025216.486,A,3938.5411,N,10649.8374,W,2.09,111.63,050417,,,A*7E
$GPGGA,025327.506,3938.5028,N,10649.8430,W,1,04,6.4,2141.42,M,-18.41,M,,0000*50
$GPRMC,025327.506,A,3938.5028,N,10649.8430,W,2.06,23.75,050417,,,A*45
$GPGGA,025438.487,3938.5423,N,10649.8340,W,1,04,6.6,2163.94,M,-18.41,M,,0000*57
$GPRMC,025438.487,A,3938.5423,N,10649.8340,W,0.62,175.56,050417,,,A*78
$GPGGA,025607.000,3938.4895,N,10649.8466,W,1,05,2.0,2067.70,M,-18.41,M,,0000*5D
$GPRMC,025607.000,A,3938.4895,N,10649.8466,W,2.21,236.69,050417,,,A*73
$GPGGA,025715.068,3938.4800,N,10649.8472,W,1,05,2.0,2067.13,M,-18.41,M,,0000*5D
$GPRMC,025715.068,A,3938.4800,N,10649.8472,W,0.00,105.96,050417,,,A*74
$GPGGA,025818.692,3938.4848,N,10649.8576,W,1,05,2.2,2066.80,M,-18.41,M,,0000*5C
$GPRMC,025818.692,A,3938.4848,N,10649.8576,W,0.00,142.97,050417,,,A*7E
$GPGGA,025920.442,3938.4930,N,10649.8514,W,1,05,2.2,2082.02,M,-18.41,M,,0000*53
$GPRMC,025920.442,A,3938.4930,N,10649.8514,W,0.00,343.24,050417,,,A*7A
$GPGGA,030025.000,3938.4896,N,10649.8460,W,1,05,2.2,2081.51,M,-18.41,M,,0000*53
$GPRMC,030025.000,A,3938.4896,N,10649.8460,W,0.46,159.54,050417,,,A*73
$GPGGA,030128.078,3938.4917,N,10649.8426,W,1,05,2.2,2075.97,M,-18.41,M,,0000*5B
$GPRMC,030128.078,A,3938.4917,N,10649.8426,W,0.00,282.27,050417,,,A*79
$GPGGA,030232.892,3938.4824,N,10649.8473,W,1,05,2.2,2103.77,M,-18.41,M,,0000*50
